,"City","fr","de","lang","Country","lat","lon","station_id"
34,"Helsinki",,,,"Finland",60.1674086,24.9425683,"(7015, 'HELSINKI KAISANIEMI AWS')"
67,"Tallinn",,,,"Estonia",59.4372155,24.7453688,"(11363, 'TALLINN')"
19,"Stockholm",,,,"Sweden",59.3251172,18.0710935,"(5464, 'STOCKHOLM_A')"
48,"Gothenburg",,,,"Sweden",57.7072326,11.9670171,"(462, 'GOTEBORG A')"
28,"Riga",,,,"Latvia",56.9493977,24.1051846,"(992, 'RIGA; UNIVERCITY')"
61,"Edinburgh",,,,"United Kingdom",55.9496416,-3.1902352,"(1832, 'EDINBURGH: ROYAL BOTANIC GARDEN')"
40,"Copenhagen","Copenhague",,,"Denmark",55.6867243,12.5700724,"(116, 'KOEBENHAVN: LANDBOHOJSKOLEN-1')"
94,"Malmö",,,,"Sweden",55.6052931,13.0001566,"(5177, 'MALMO_2')"
44,"Vilnius",,,,"Lithuania",54.6870458,25.2829111,"(202, 'VILNIUS')"
88,"Belfast",,,,"United Kingdom",54.5969869,-5.9300992,"(1821, 'STORMONT CASTLE')"
25,"Leeds",,,,"United Kingdom",53.7974185,-1.5437941,"(1847, 'BRADFORD')"
7,"Hamburg","Hambourg",,"de","Germany",53.550341,10.000654,"(4180, 'HAMBURG-BOTANISCHER GARTEN')"
71,"Szczecin",,"Stettin",,"Poland",53.42968095,14.59291267,"(208, 'SZCZECIN')"
63,"Liverpool",,,,"United Kingdom",53.4054719,-2.9805392,"(1807, 'HAWARDEN BRIDGE')"
45,"Sheffield",,,,"United Kingdom",53.3806626,-1.4702278,"(1848, 'SHEFFIELD')"
50,"Dublin",,,,"Ireland",53.3497645,-6.2602732,"(1715, 'DUBLIN (MERRION SQUARE)')"
49,"Bremen","Brême",,"de","Germany",53.0758196,8.8071646,"(4884, 'BREMEN-SEEFAHRTSCHULE')"
97,"Nottingham",,,,"United Kingdom",52.9534161,-1.1492773,"(1850, 'NOTTINGHAM: WATNALL')"
82,"Leicester",,,,"United Kingdom",52.6361398,-1.1330789,"(1852, 'NEWTOWN LINFORD')"
1,"Berlin",,,"de","Germany",52.5170365,13.3888599,"(4563, 'BERLIN-MITTE')"
16,"Birmingham",,,,"United Kingdom",52.4775396,-1.894053,"(257, 'CET CENTRAL ENGLAND')"
22,"Amsterdam",,,,"Netherlands",52.3745403,4.897975506,"(593, 'SCHIPHOL')"
56,"Hanover","Hanovre",,"de","Germany",52.3744779,9.7385532,"(476, 'HANNOVER')"
8,"Warsaw","Varsovie","Warschau",,"Poland",52.2319237,21.0067265,"(209, 'WARSZAWA-OKECIE')"
83,"Utrecht",,,,"Netherlands",52.08095165,5.127680315,"(162, 'DE BILT')"
57,"The Hague","La Haye",,,"Netherlands",52.0799838,4.3113461,"(10961, 'VOORSCHOTEN')"
105,"Münster",,,"de","Germany",51.9501317,7.61330165,"(53, 'MUENSTER')"
36,"Rotterdam",,,,"Netherlands",51.92779805,4.488623269,"(598, 'ROTTERDAM')"
41,"Dortmund",,,"de","Germany",51.5142273,7.4652789,"(4021, 'DORTMUND')"
0,"London","Londres",,,"United Kingdom",51.5073219,-0.1276474,"(1859, 'HAMPSTEAD')"
76,"Bochum",,,"de","Germany",51.4818111,7.2196635,"(4769, 'BOCHUM')"
43,"Essen",,,"de","Germany",51.457087,7.011429,"(4074, 'ESSEN-BREDENEY')"
62,"Duisburg",,,"de","Germany",51.434999,6.759562,"(4031, 'DUISBURG-LAAR')"
46,"Leipzig",,,"de","Germany",51.3406321,12.3747329,"(4344, 'LEIPZIG-HOLZHAUSEN')"
81,"Wuppertal",,,"de","Germany",51.264018,7.1780374,"(4791, 'WUPPERTAL-BUCHENHOFEN')"
39,"Düsseldorf",,,"de","Germany",51.2254018,6.7763137,"(4029, 'DUSSELDORF-SUDFRIEDHOF')"
35,"Wrocław",,"Breslau",,"Poland",51.1263106,16.97819633,"(210, 'WROCLAW')"
52,"Dresden",,,"de","Germany",51.0493286,13.7381437,"(11744, 'DRESDEN (MITTE)')"
17,"Cologne",,"Köln","de","Germany",50.938361,6.959974,"(4298, 'KOLN-BOTANISCHER GARTEN')"
101,"Bonn",,,"de","Germany",50.735851,7.10066,"(4822, 'BONN')"
27,"Frankfurt",,,"de","Germany",50.1106444,8.6820917,"(4107, 'FELDBERGSTR.')"
14,"Prague",,"Prag",,"Czech Republic",50.0874654,14.4212535,"(27, 'PRAHA-KLEMENTINUM')"
26,"Kraków","Cracovie",,,"Poland",50.04691015,19.99706376,"(929, 'KRAKOW')"
108,"Mannheim",,,"de","Germany",49.489591,8.467236,"(4369, 'LUDWIGSHAFEN-MUNDENHEIM')"
60,"Nuremberg",,"Nürnberg","de","Germany",49.453872,11.077298,"(4478, 'NURNBERG-BUCHENBUEHL')"
106,"Karlsruhe",,,"de","Germany",49.0068705,8.4034195,"(51, 'KARLSRUHE')"
4,"Paris",,,"fr","France",48.8566101,2.3514992,"(11249, 'ORLY')"
37,"Stuttgart",,,"de","Germany",48.7784485,9.1800132,"(56, 'STUTTGART')"
6,"Vienna","Vienne","Wien","de","Austria",48.2083537,16.3725042,"(16, 'WIEN')"
11,"Munich",,"München","de","Germany",48.1371079,11.5753822,"(4431, 'MUNCHEN-BOGENHAUSEN')"
9,"Budapest",,,,"Hungary",47.4983815,19.0404707,"(64, 'BUDAPEST')"
77,"Iasi",,,,"Romania",47.161494,27.5840504,"(951, 'IASI')"
102,"Cluj-Napoca",,,,"Romania",46.7693367,23.5900604,"(222, 'CLUJ NAPOCA')"
23,"Zagreb",,,,"Croatia",45.813177,15.977048,"(21, 'ZAGREB-GRIC')"
59,"Lyon",,,"fr","France",45.7578137,4.8320114,"(37, 'LYON - ST EXUPERY')"
12,"Milan",,,,"Italy",45.4667971,9.1904984,"(173, 'MILAN')"
109,"Galati",,,,"Romania",45.4338215,28.0549395,"(2059, 'GALATI')"
72,"Bologna","Bologne",,,"Italy",44.4936714,11.3430347,"(169, 'BOLOGNA')"
5,"Bucharest","Bucarest",,,"Romania",44.4361414,26.1027202,"(219, 'BUCURESTI-BANEASA')"
107,"Craiova",,,,"Romania",44.3190159,23.7965614,"(2061, 'CRAIOVA')"
103,"Constanța",,,,"Romania",44.1724166,28.62081966,"(2062, 'CONSTANTA')"
84,"Nice",,"Nizza","fr","France",43.7009358,7.2683912,"(757, 'NICE')"
64,"Toulouse",,,"fr","France",43.6044622,1.4442469,"(33, 'TOULOUSE-BLAGNAC')"
21,"Marseille",,,"fr","France",43.2961743,5.3699525,"(31, 'MARSEILLE OBS. PALAIS-LONCHAMP')"
85,"Bilbao",,,,"Spain",43.2630051,-2.9349915,"(1393, 'BILBAO AEROPUERTO')"
3,"Rome",,"Rom",,"Italy",41.894802,12.4853384,"(176, 'ROMA CIAMPINO')"
32,"Zaragoza","Saragosse",,,"Spain",41.84004695,-1.169509009,"(238, 'ZARAGOZA AEROPUERTO')"
2,"Madrid",,,,"Spain",40.4167047,-3.7035825,"(230, 'MADRID-RETIRO')"
70,"Palma de Mallorca",,,,"Spain",39.5695818,2.6500745,"(3918, 'PALMA DE MALLORCA CMT')"
24,"Valencia","Valence",,,"Spain",39.4699014,-0.3759513,"(237, 'VALENCIA')"
51,"Lisbon","Lisbonne","Lissabon",,"Portugal",38.7077507,-9.1365919,"(214, 'LISBOA GEOFISICA')"
95,"Alicante",,,,"Spain",38.353738,-0.4901846,"(412, 'ALICANTE')"
68,"Murcia",,,,"Spain",37.9923795,-1.1305431,"(421, 'MURCIA')"
33,"Athens","Athènes","Athen",,"Greece",37.9841493,23.7279843,"(60, 'HELLINIKON')"
96,"Córdoba","Cordoue",,,"Spain",37.8849779,-4.7760131,"(337, 'CORDOBA AEROPUERTO')"
30,"Seville","Séville","Sevilla",,"Spain",37.3886303,-5.9953171,"(423, 'SEVILLA/SAN PABLO')"
47,"Málaga","Malaga",,,"Spain",36.7213028,-4.4216366,"(231, 'MALAGA AEROPUERTO')"
75,"Las Palmas",,,,"Spain",28.128874,-15.4349448,"(3941, 'GANDO')"
